time(millisecond),datetime(utc),latitude,longitude,height_above_takeoff(feet),height_above_ground_at_drone_location(feet),ground_elevation_at_drone_location(feet),altitude_above_seaLevel(feet),height_sonar(feet),speed(mph),distance(feet),mileage(feet),satellites,gpslevel,voltage(v),max_altitude(feet),max_ascent(feet),max_speed(mph),max_distance(feet), xSpeed(mph), ySpeed(mph), zSpeed(mph), compass_heading(degrees), pitch(degrees), roll(degrees),isPhoto,isVideo,rc_elevator,rc_aileron,rc_throttle,rc_rudder,rc_elevator(percent),rc_aileron(percent),rc_throttle(percent),rc_rudder(percent),gimbal_heading(degrees),gimbal_pitch(degrees),battery_percent,voltageCell1,voltageCell2,voltageCell3,voltageCell4,voltageCell5,voltageCell6,current(A),battery_temperature(f),altitude(feet),ascent(feet),flycStateRaw,flycState,message
0,2022-02-25 02:57:32,0,0,0,Available with any HD 360 subscription,Available with any HD 360 subscription,644.05203045218,0.328084,0,0,0,9,0,0,644.05203045218,0,0,0,0,0,0,329.1, 2.8, 0,0,0,364,1684,364,364,-100,100,-100,-100,333,0,84,4.12,4.119,4.116,0,0,0,0,71.06,644.05203045218,0,41,Motors_Started,"机身存储空间已满，请备份文件后清理存储空间 (Code: 10062). 飞机GPS信号弱，悬停不稳定，请谨慎起飞 (Code: 30008). 飞机GPS信号弱，悬停不稳定，请谨慎飞行 (Code: 30002). 机身存储空间已满，请备份文件后清理存储空间 (Code: 10062)"
100,2022-02-25 02:57:32,0,0,0,,,644.05203045218,0.328084,0,0,0,9,0,0,644.05203045218,0,0,0,0,0,0,329.1, 2.8, 0,0,0,364,1684,364,364,-100,100,-100,-100,333,0,84,4.12,4.119,4.116,0,0,0,0,71.06,644.05203045218,0,41,Motors_Started,
200,2022-02-25 02:57:32,0,0,0,,,644.05203045218,0.328084,0,0,0,9,0,0,644.05203045218,0,0,0,0,0,0,329.1, 2.8, 0,0,0,364,1684,364,364,-100,100,-100,-100,333,0,84,4.12,4.119,4.116,0,0,0,0,71.06,644.05203045218,0,41,Motors_Started,
300,2022-02-25 02:57:32,0,0,0,,,644.05203045218,0.328084,0,0,0,9,0,0,644.05203045218,0,0,0,0,0,0,329.1, 2.8, 0,0,0,364,1684,364,364,-100,100,-100,-100,333,0,84,4.12,4.119,4.116,0,0,0,0,71.06,644.05203045218,0,41,Motors_Started,
400,2022-02-25 02:57:32,0,0,0,,,644.05203045218,0.328084,0,0,0,9,0,0,644.05203045218,0,0,0,0,0,0,329.1, 2.8, 0,0,0,715,1141,933,1024,-47,18,-14,0,333,0,84,4.12,4.119,4.116,0,0,0,0,71.06,644.05203045218,0,41,Motors_Started,"Setting new Return-To-Home altitude to 150m (492 ft). Data Recorder File Index is 42"
500,2022-02-25 02:57:32,0,0,0,,,644.05203045218,0.328084,0,0,0,9,0,0,644.05203045218,0,0,0,0,0,0,329.1, 2.8, 0,0,0,1024,1024,1024,1024,0,0,0,0,333,0,84,4.12,4.119,4.116,0,0,0,0,71.06,644.05203045218,0,41,Motors_Started,
600,2022-02-25 02:57:32,0,0,0,,,644.05203045218,0.328084,0,0,0,9,0,0,644.05203045218,0,0,0,0,0,0,329.1, 2.8, 0,0,0,1024,1024,1024,1024,0,0,0,0,333,0,84,4.12,4.119,4.116,0,0,0,0,71.06,644.05203045218,0,41,Motors_Started,
700,2022-02-25 02:57:33,0,0,0,,,644.05203045218,0.328084,0,0,0,9,2,0,644.05203045218,0,0,0,0,0,0,329.1, 2.8, 0,0,0,1024,1024,1024,1024,0,0,0,0,333,0,84,4.12,4.119,4.116,0,0,0,0,71.06,644.05203045218,0,41,Motors_Started,
800,2022-02-25 02:57:33,0,0,0,,,644.05203045218,0.328084,0,0,0,9,2,0,644.05203045218,0,0,0,0,0,0,329.1, 2.8, 0,0,0,1024,1024,1024,1024,0,0,0,0,333,0,84,4.12,4.119,4.116,0,0,0,0,71.06,644.05203045218,0,41,Motors_Started,
900,2022-02-25 02:57:33,0,0,0,,,644.05203045218,0.328084,0,0,0,9,2,12.479,644.05203045218,0,0,0,0,0,0,329.1, 2.8, 0,0,0,1024,1024,1024,1024,0,0,0,0,333,0,84,4.12,4.119,4.116,0,0,0,1.46,71.06,644.05203045218,0,41,Motors_Started,
1000,2022-02-25 02:57:33,0,0,0,,,644.05203045218,0.328084,0,0,0,9,2,12.479,644.05203045218,0,0,0,0,0,0,329.2, 2.8, 0,0,0,1024,1024,1024,1024,0,0,0,0,333,0,84,4.12,4.119,4.116,0,0,0,1.46,71.06,644.05203045218,0,41,Motors_Started,
1100,2022-02-25 02:57:33,0,0,0,,,644.05203045218,0.328084,0,0,0,9,2,12.479,644.05203045218,0,0,0,0,0,0,329.2, 2.8, 0,0,0,1024,1024,1024,1024,0,0,0,0,333,0,84,4.12,4.119,4.116,0,0,0,1.46,71.06,644.05203045218,0,41,Motors_Started,
1200,2022-02-25 02:57:33,0,0,0,,,644.05203045218,0.328084,0,0,0,9,2,12.479,644.05203045218,0,0,0,0,0,0,329.2, 2.7, 0,0,0,1024,1024,1024,1024,0,0,0,0,333,0,84,4.12,4.119,4.116,0,0,0,1.46,71.06,644.05203045218,0,41,Motors_Started,
1300,2022-02-25 02:57:33,0,0,0,,,644.05203045218,0.328084,0,0,0,9,2,12.479,644.05203045218,0,0,0,0,0,0,329.2, 2.8, 0,0,0,1024,1024,1024,1024,0,0,0,0,333,0,84,4.12,4.119,4.116,0,0,0,1.46,71.06,644.05203045218,0,41,Motors_Started,
1400,2022-02-25 02:57:33,38.6132530582919,114.377485285639,0,,,644.05203045218,0.328084,0,0,0,9,2,12.479,644.05203045218,0,0,0,0,0,0,329.2, 2.8, 0,0,0,1024,1024,1024,1024,0,0,0,0,333,0,84,4.12,4.119,4.116,0,0,0,1.46,71.06,644.05203045218,0,41,Motors_Started,
1500,2022-02-25 02:57:33,38.6132530576603,114.377485288063,0,,,644.05203045218,0.328084,0,0.0007284449052,0.0007284449052,9,2,12.479,644.05203045218,0,0,0.0007284449052,0,0,0,329.2, 2.8, 0,0,0,1024,1024,1024,1024,0,0,0,0,333,0,84,4.12,4.119,4.116,0,0,0,1.46,71.06,644.05203045218,0,10,Assisted_Takeoff,
1600,2022-02-25 02:57:33,38.6132532133367,114.377485126809,0,,,644.05203045218,0.328084,0,0.072458663736,0.073799871128,9,2,12.479,644.05203045218,0,0,0.072458663736,0,0,0,329.2, 2.8, 0,0,0,1024,1024,1024,1024,0,0,0,0,333,0,84,4.12,4.119,4.116,0,0,0,1.46,71.06,644.05203045218,0,10,Assisted_Takeoff,
1700,2022-02-25 02:57:33,38.613253226369,114.377485114799,0,,,644.05203045218,0.328084,0,0.078310698044,0.079659123284,9,2,12.479,644.05203045218,0,0,0.078310698044,0,0,0,329.2, 2.8, 0,0,0,1024,1024,1024,1024,0,0,0,0,333,0,84,4.12,4.119,4.116,0,0,0,1.46,71.06,644.05203045218,0,10,Assisted_Takeoff,
1800,2022-02-25 02:57:34,38.6132533592637,114.377484977374,0,,,644.05203045218,0.328084,0,0.140646001876,0.141995411368,9,2,12.479,644.05203045218,0,0,0.140646001876,0,0,0,329.2, 2.8, 0,0,0,1024,1024,1024,1024,0,0,0,0,333,0,84,4.12,4.119,4.116,0,0,0,1.46,71.06,644.05203045218,0,10,Assisted_Takeoff,谨慎飞行（无GPS）
1900,2022-02-25 02:57:34,38.6132533843708,114.377484952828,0,,,644.05203045218,0.328084,0,0.152170608544,0.153522970792,9,2,12.311,644.05203045218,0,0,0.152170608544,0,0,0,329.2, 2.8, 0,0,0,1024,1024,1024,1024,0,0,0,0,333,0,84,4.109,4.111,4.119,0,0,0,3.934,71.06,644.05203045218,0,10,Assisted_Takeoff,
2000,2022-02-25 02:57:34,38.6132534978477,114.377484994581,0,,,644.05203045218,0.328084,0,0.180566278744,0.196602040412,9,2,12.311,644.05203045218,0,0,0.180566278744,0,0,0,329.2, 2.8, 0,0,0,1024,1024,1024,1024,0,0,0,0,333,0,84,4.109,4.111,4.119,0,0,0,3.934,71.06,644.05203045218,0,10,Assisted_Takeoff,
2100,2022-02-25 02:57:34,38.6132535325226,114.377484974853,0,,,644.05203045218,0.328084,0,0.194388457664,0.210446857128,9,2,12.311,644.05203045218,0,0,0.194388457664,0,0,0,329.2, 2.8, 0,0,0,1024,1024,1024,1024,0,0,0,0,333,0,84,4.109,4.111,4.119,0,0,0,3.934,71.06,644.05203045218,0,10,Assisted_Takeoff,
2200,2022-02-25 02:57:34,38.6132534712959,114.377484854567,0,,,644.05203045218,0.328084,0,0.194443575776,0.25137303954,9,2,12.311,644.05203045218,0,0,0.194443575776,0,0,0,329.2, 2.8, 0,0,0,1024,1024,1024,1024,0,0,0,0,333,0,84,4.109,4.111,4.119,0,0,0,3.934,71.06,644.05203045218,0,10,Assisted_Takeoff,
2300,2022-02-25 02:57:34,38.6132534998396,114.377484825113,0,,,644.05203045218,0.328084,0,0.207820872792,0.264750336556,9,3,12.311,644.05203045218,0,0,0.207820872792,0,0,0,329.2, 2.8, 0,0,0,1024,1024,1024,1024,0,0,0,0,333,0,84,4.109,4.111,4.119,0,0,0,3.934,71.06,644.05203045218,0,10,Assisted_Takeoff,"机身存储空间已满，请备份文件后清理存储空间 (Code: 10062)"
2400,2022-02-25 02:57:34,38.61325360539,114.377485036943,0,,,644.05203045218,0.328084,0,0.211826122264,0.33637468268,9,3,12.311,644.05203045218,0,0,0.211826122264,0,0,0,329.2, 2.8, 0,0,0,1024,1024,1024,1024,0,0,0,0,333,0,84,4.109,4.111,4.119,0,0,0,3.934,71.06,644.05203045218,0,10,Assisted_Takeoff,
2500,2022-02-25 02:57:34,38.6132536420656,114.377485027899,0,,,644.05203045218,0.328084,0,0.225307749992,0.3500000112,9,3,12.311,644.05203045218,0,0,0.225307749992,0,0,0,329.2, 2.8, 0,0,0,1024,1024,1024,1024,0,0,0,0,333,0,84,4.109,4.111,4.119,0,0,0,3.934,71.06,644.05203045218,0,10,Assisted_Takeoff,
2600,2022-02-25 02:57:34,38.6132537327854,114.377485051054,0,,,644.05203045218,0.328084,0,0.255013787688,0.38375329312,9,3,12.311,644.05203045218,0,0,0.255013787688,0,0,0,329.2, 2.8, 0,0,0,1024,1024,1024,1024,0,0,0,0,333,0,84,4.109,4.111,4.119,0,0,0,3.934,71.06,644.05203045218,0,10,Assisted_Takeoff,
2700,2022-02-25 02:57:35,38.6132537762856,114.377485046329,0,,,644.05203045218,0.328084,0,0.270697843308,0.39967849048,9,3,12.311,644.05203045218,0,0,0.270697843308,0,0,0,329.2, 2.8, 0,0,0,1024,1024,1024,1024,0,0,0,0,333,0,84,4.109,4.111,4.119,0,0,0,3.934,71.06,644.05203045218,0,10,Assisted_Takeoff,
2800,2022-02-25 02:57:35,38.6132536967438,114.377485221077,0,,,644.05203045218,0.328084,0,0.23366470564,0.45733597264,9,3,12.311,644.05203045218,0,0,0.270697843308,0,0,0,329.2, 2.8, 0,0,0,1024,1024,1024,1024,0,0,0,0,333,0,84,4.109,4.111,4.119,0,0,0,3.934,71.06,644.05203045218,0,10,Assisted_Takeoff,
2900,2022-02-25 02:57:35,38.6132537307924,114.377485232614,0,,,644.05203045218,0.328084,0,0.24582677952,0.47018374208,9,3,12.311,644.05203045218,0,0,0.270697843308,0,0,0,329.2, 2.8, 0,0,0,1024,1024,1024,1024,0,0,0,0,333,0,84,4.109,4.111,4.119,0,0,0,3.934,71.06,644.05203045218,0,10,Assisted_Takeoff,
3000,2022-02-25 02:57:35,38.6132536652,114.377485063205,0,,,644.05203045218,0.328084,0,0.230331044116,0.52408466244,9,3,12.432,644.05203045218,0,0,0.270697843308,0,0,0,329.2, 2.8, 0,0,0,1024,1024,1024,1024,0,0,0,0,333,0,84,4.145,4.146,4.143,0,0,0,1.7,71.06,644.05203045218,0,10,Assisted_Takeoff,
3100,2022-02-25 02:57:35,38.6132536917931,114.377485061177,0,,,644.05203045218,0.328084,0,0.239827107412,0.53380579136,9,3,12.432,644.05203045218,0,0,0.270697843308,0,0,0,329.2, 2.8, 0,0,0,1024,1024,1024,1024,0,0,0,0,333,0,84,4.145,4.146,4.143,0,0,0,1.7,71.06,644.05203045218,0,10,Assisted_Takeoff,
3200,2022-02-25 02:57:35,38.6132537918888,114.377485071295,0,,,644.05203045218,0.328084,0,0.27453905078,0.5704396508,9,3,12.432,644.05203045218,0,0,0.27453905078,0,0,0,329.2, 2.8, 0,0,0,1024,1024,1024,1024,0,0,0,0,333,0,84,4.145,4.146,4.143,0,0,0,1.7,71.06,644.05203045218,0,10,Assisted_Takeoff,
3300,2022-02-25 02:57:35,38.6132538255586,114.377485071308,0,,,644.05203045218,0.328084,0,0.286527896308,0.58272311576,9,3,12.432,644.05203045218,0,0,0.286527896308,0,0,0,329.2, 2.8, 0,0,0,1024,1024,1024,1024,0,0,0,0,333,0,84,4.145,4.146,4.143,0,0,0,1.7,71.06,644.05203045218,0,10,Assisted_Takeoff,
3400,2022-02-25 02:57:35,38.6132537591228,114.377485077789,0,,,644.05203045218,0.328084,0,0.26247376168,0.60703085932,9,3,12.432,644.05203045218,0,0,0.286527896308,0,0,0,329.2, 2.8, 0,0,0,1024,1024,1024,1024,0,0,0,0,333,0,84,4.145,4.146,4.143,0,0,0,1.7,71.06,644.05203045218,0,10,Assisted_Takeoff,
3500,2022-02-25 02:57:35,38.6132537848899,114.377485078128,0,,,644.05203045218,0.328084,0,0.271619431264,0.61643374676,9,3,12.432,644.05203045218,0,0,0.286527896308,0,0,0,329.2, 2.8, 0,0,0,1024,1024,1024,1024,0,0,0,0,333,0,84,4.145,4.146,4.143,0,0,0,1.7,71.06,644.05203045218,0,10,Assisted_Takeoff,
3600,2022-02-25 02:57:35,38.6132538888203,114.377485080845,0,,,644.05203045218,0.328084,0,0.308591217224,0.65436025716,9,3,12.432,644.05203045218,0,0,0.308591217224,0,0,0,329.2, 2.8, 0,0,0,1024,1024,1024,1024,0,0,0,0,333,0,84,4.145,4.146,4.143,0,0,0,1.7,71.06,644.05203045218,0,10,Assisted_Takeoff,
3700,2022-02-25 02:57:36,38.6132539209448,114.377485082965,0,,,644.05203045218,0.328084,0,0.319998041736,0.66609582184,9,3,12.432,644.05203045218,0,0,0.319998041736,0,0,0,329.2, 2.8, 0,0,0,1024,1024,1024,1024,0,0,0,0,333,0,84,4.145,4.146,4.143,0,0,0,1.7,71.06,644.05203045218,0,10,Assisted_Takeoff,
3800,2022-02-25 02:57:36,38.613253854886,114.377485084134,0,,,644.05203045218,0.328084,0,0.296259852,0.69020015332,9,3,12.432,644.05203045218,0,0,0.319998041736,0,0,0,329.2, 2.8, 0,0,0,1024,1024,1024,1024,0,0,0,0,333,0,84,4.145,4.146,4.143,0,0,0,1.7,71.06,644.05203045218,0,10,Assisted_Takeoff,
3900,2022-02-25 02:57:36,38.6132538792096,114.377485087292,0,,,644.05203045218,0.328084,0,0.304802503192,0.69912075728,9,3,12.432,644.05203045218,0,0,0.319998041736,0,0,0,329.2, 2.8, 0,0,0,1024,1024,1024,1024,0,0,0,0,333,0,84,4.145,4.146,4.143,0,0,0,1.7,71.06,644.05203045218,0,10,Assisted_Takeoff,
4000,2022-02-25 02:57:36,38.6132539840153,114.377484928842,0,,,644.05203045218,0.328084,0,0.35273295092,0.75830383004,9,3,12.432,644.05203045218,0,0,0.35273295092,0,0,0,329.2, 2.8, 0,0,0,1024,1024,1024,1024,0,0,0,0,333,0,84,4.145,4.146,4.143,0,0,0,1.7,71.06,644.05203045218,0,10,Assisted_Takeoff,
4100,2022-02-25 02:57:36,38.6132540158646,114.377484916234,0,,,644.05203045218,0.328084,0,0.36489830564,0.77046590392,9,3,12.432,644.05203045218,0,0,0.36489830564,0,0,0,329.2, 2.8, 0,0,0,1024,1024,1024,1024,0,0,0,0,333,0,84,4.145,4.146,4.143,0,0,0,1.7,71.06,644.05203045218,0,10,Assisted_Takeoff,
4200,2022-02-25 02:57:36,38.6132541082552,114.377484779705,0,,,644.05203045218,0.328084,0,0.40933072176,0.82195868772,9,3,12.432,644.05203045218,0,0,0.40933072176,0,0,0,329.2, 2.8, 0,0,0,1024,1024,1024,1024,0,0,0,0,333,0,84,4.145,4.146,4.143,0,0,0,1.7,71.06,644.05203045218,0,10,Assisted_Takeoff,
4300,2022-02-25 02:57:36,38.6132541463861,114.377484756833,0,,,644.05203045218,0.328084,0,0.42465224456,0.83732286144,9,4,12.432,644.05203045218,0,0,0.42465224456,0,0,0,329.2, 2.8, 0,0,0,1024,1024,1024,1024,0,0,0,0,333,0,84,4.145,4.146,4.143,0,0,0,1.7,71.06,644.05203045218,0,10,Assisted_Takeoff,
4400,2022-02-25 02:57:36,38.6132542290221,114.377484798506,0,,,644.05203045218,0.328084,0,0.44915027684,0.86972771812,9,4,12.432,644.05203045218,0,0,0.44915027684,0,0,0,329.2, 2.8, 0,0,0,1024,1024,1024,1024,0,0,0,0,333,0,84,4.145,4.146,4.143,0,0,0,1.7,71.06,644.05203045218,0,10,Assisted_Takeoff,
4500,2022-02-25 02:57:36,38.6132542731193,114.377484779809,0,,,644.05203045218,0.328084,0,0.46609909628,0.88667653756,9,4,12.432,644.05203045218,0,0,0.46609909628,0,0,0,329.2, 2.8, 0,0,0,1024,1024,1024,1024,0,0,0,0,333,0,84,4.145,4.146,4.143,0,0,0,1.7,71.06,644.05203045218,0,10,Assisted_Takeoff,"机身存储空间已满，请备份文件后清理存储空间 (Code: 10062)"
4600,2022-02-25 02:57:36,38.6132541900523,114.377484815982,0,,,644.05203045218,0.328084,0,0.4340879404,0.91869097428,9,4,12.432,644.05203045218,0,0,0.46609909628,0,0,0,329.2, 2.8, 0,0,0,1024,1024,1024,1024,0,0,0,0,333,0,84,4.145,4.146,4.143,0,0,0,1.7,71.06,644.05203045218,0,10,Assisted_Takeoff,
4700,2022-02-25 02:57:37,38.6132542236598,114.37748480258,0,,,644.05203045218,0.328084,0,0.44692914816,0.93153218204,9,4,12.434,644.05203045218,0,0,0.46609909628,0,0,0,329.2, 2.8, 0,0,0,1024,1024,1024,1024,0,0,0,0,333,0,84,4.145,4.147,4.143,0,0,0,1.573,71.24,644.05203045218,0,10,Assisted_Takeoff,机身存储空间已满
4800,2022-02-25 02:57:37,38.61325431223,114.377484832798,0,,,644.05203045218,0.328084,0,0.47536418844,0.964977065,9,4,12.434,644.05203045218,0,0,0.47536418844,0,0,0,329.2, 2.8, 0,0,0,1024,1024,1024,1024,0,0,0,0,333,0,84,4.145,4.147,4.143,0,0,0,1.573,71.24,644.05203045218,0,10,Assisted_Takeoff,
4900,2022-02-25 02:57:37,38.6132543512399,114.377484823608,0,,,644.05203045218,0.328084,0,0.48977691856,0.97944885024,9,4,12.434,644.05203045218,0,0,0.48977691856,0,0,0,329.2, 2.8, 0,0,0,1024,1024,1024,1024,0,0,0,0,333,0,84,4.145,4.147,4.143,0,0,0,1.573,71.24,644.05203045218,0,10,Assisted_Takeoff,
5000,2022-02-25 02:57:37,38.6132544298875,114.377484690514,0,,,644.05203045218,0.328084,0,0.52840552872,1.02702103024,9,4,12.434,644.05203045218,0,0,0.52840552872,0,0,0,329.2, 2.8, 0,0,0,1024,1024,1024,1024,0,0,0,0,333,0,84,4.145,4.147,4.143,0,0,0,1.573,71.24,644.05203045218,0,10,Assisted_Takeoff,
5100,2022-02-25 02:57:37,38.613254472944,114.37748467017,0,,,644.05203045218,0.328084,0,0.5451443744,1.0437664376,9,4,12.434,644.05203045218,0,0,0.5451443744,0,0,0,329.2, 2.8, 0,0,0,1024,1024,1024,1024,0,0,0,0,333,0,84,4.145,4.147,4.143,0,0,0,1.573,71.24,644.05203045218,0,10,Assisted_Takeoff,
5200,2022-02-25 02:57:37,38.6132545438275,114.377484711577,0,,,644.05203045218,0.328084,0,0.56616471628,1.0721949162,9,4,12.434,644.05203045218,0,0,0.56616471628,0,0,0,329.2, 2.8, 0,0,0,1024,1024,1024,1024,0,0,0,0,333,0,84,4.145,4.147,4.143,0,0,0,1.573,71.24,644.05203045218,0,10,Assisted_Takeoff,
5300,2022-02-25 02:57:37,38.6132545905492,114.377484695707,0,,,644.05203045218,0.328084,0,0.5837926696,1.0898294312,9,4,12.434,644.05203045218,0,0,0.5837926696,0,0,0,329.2, 2.8, 0,0,0,1024,1024,1024,1024,0,0,0,0,333,0,84,4.145,4.147,4.143,0,0,0,1.573,71.24,644.05203045218,0,10,Assisted_Takeoff,
5400,2022-02-25 02:57:37,38.613254654325,114.377484728848,0,,,644.05203045218,0.328084,0,0.6035597306,1.1149442614,9,4,12.434,644.05203045218,0,0,0.6035597306,0,0,0,329.2, 2.8, 0,0,0,1024,1024,1024,1024,0,0,0,0,333,0,84,4.145,4.147,4.143,0,0,0,1.573,71.24,644.05203045218,0,10,Assisted_Takeoff,"返航点已刷新，返航高度为150m (Code: 3000001)"
5500,2022-02-25 02:57:37,38.6132547046502,114.377484717785,0,,,644.05203045218,0.328084,0,0.62210631912,1.13357287092,9,4,12.434,644.05203045218,0,0,0.62210631912,0,0,0,329.2, 2.8, 0,0,0,1024,1024,1024,1024,0,0,0,0,333,0,84,4.145,4.147,4.143,0,0,0,1.573,71.24,644.05203045218,0,10,Assisted_Takeoff,
5600,2022-02-25 02:57:37,38.6132549202874,114.377484743564,0,,,644.05203045218,0.328084,0,0.6967027782,1.21259190232,9,4,12.434,644.05203045218,0,0,0.6967027782,0,0,0,329.2, 2.8, 0,0,0,1024,1024,1024,1024,0,0,0,0,333,0,84,4.145,4.147,4.143,0,0,0,1.573,71.24,644.05203045218,0,10,Assisted_Takeoff,
5700,2022-02-25 02:57:38,38.613254986348,114.37748473627,0,,,644.05203045218,0.328084,0,0.72067259524,1.23678153564,9,4,12.432,644.05203045218,0,0,0.72067259524,0,0,0,329.2, 2.8, 0,0,0,1024,1024,1024,1024,0,0,0,0,333,0,84,4.144,4.146,4.143,0,0,0,1.574,71.24,644.05203045218,0,10,Assisted_Takeoff,
5800,2022-02-25 02:57:38,38.6132548592501,114.377484755529,0,,,644.05203045218,0.328084,0,0.67423558588,1.28347773136,9,4,12.432,644.05203045218,0,0,0.72067259524,0,0,0,329.2, 2.8, 0,0,0,1024,1024,1024,1024,0,0,0,0,333,0,84,4.144,4.146,4.143,0,0,0,1.574,71.24,644.05203045218,0,10,Assisted_Takeoff,
5900,2022-02-25 02:57:38,38.6132549094068,114.377484752107,0,,,644.05203045218,0.328084,0,0.69229332924,1.3018045036,9,4,12.432,644.05203045218,0,0,0.72067259524,0,0,0,329.2, 2.8, 0,0,0,1024,1024,1024,1024,0,0,0,0,333,0,84,4.144,4.146,4.143,0,0,0,1.574,71.24,644.05203045218,0,10,Assisted_Takeoff,
6000,2022-02-25 02:57:38,38.6132548042651,114.37748476649,0,,,644.05203045218,0.328084,0,0.65398296056,1.34038390116,9,4,12.432,644.05203045218,0,0,0.72067259524,0,0,0,329.2, 2.8, 0,0,0,1024,1024,1024,1024,0,0,0,0,333,0,84,4.144,4.146,4.143,0,0,0,1.574,71.24,644.05203045218,0,10,Assisted_Takeoff,
6100,2022-02-25 02:57:38,38.6132548403728,114.377484766763,0,,,644.05203045218,0.328084,0,0.66680448328,1.35355647376,9,4,12.432,644.05203045218,0,0,0.72067259524,0,0,0,329.2, 2.8, 0,0,0,1024,1024,1024,1024,0,0,0,0,333,0,84,4.144,4.146,4.143,0,0,0,1.574,71.24,644.05203045218,0,10,Assisted_Takeoff,
6200,2022-02-25 02:57:38,38.6132549141065,114.37748477736,0,,,644.05203045218,0.328084,0,0.69242456284,1.38062996544,9,4,12.432,644.05203045218,0,0,0.72067259524,0,0,0,329.2, 2.8, 0,0,0,1024,1024,1024,1024,0,0,0,0,333,0,84,4.144,4.146,4.143,0,0,0,1.574,71.24,644.05203045218,0,10,Assisted_Takeoff,
6300,2022-02-25 02:57:38,38.6132549540519,114.377484779726,0,,,644.05203045218,0.328084,0,0.7065452982,1.39521658008,9,4,12.432,644.05203045218,0,0,0.72067259524,0,0,0,329.2, 2.8, 0,0,0,1024,1024,1024,1024,0,0,0,0,333,0,84,4.144,4.146,4.143,0,0,0,1.574,71.24,644.05203045218,0,10,Assisted_Takeoff,
6400,2022-02-25 02:57:38,38.6132550246874,114.377484786277,0,,,644.05203045218,0.328084,0,0.73142718876,1.42105647592,9,4,12.432,644.05203045218,0,0,0.73142718876,0,0,0,329.2, 2.8, 0,0,0,1024,1024,1024,1024,0,0,0,0,333,0,84,4.144,4.146,4.143,0,0,0,1.574,71.24,644.05203045218,0,10,Assisted_Takeoff,
6500,2022-02-25 02:57:38,38.6132550669485,114.377484790986,0,,,644.05203045218,0.328084,0,0.74630251732,1.43653547904,9,4,12.432,644.05203045218,0,0,0.74630251732,0,0,0,329.2, 2.8, 0,0,0,1024,1024,1024,1024,0,0,0,0,333,0,84,4.144,4.146,4.143,0,0,0,1.574,71.24,644.05203045218,0,10,Assisted_Takeoff,
6600,2022-02-25 02:57:38,38.6132549768316,114.377484793758,0,,,644.05203045218,0.328084,0,0.71388453728,1.4694226192,9,4,12.432,644.05203045218,0,0,0.74630251732,0,0,0,329.2, 2.8, 0,0,0,1024,1024,1024,1024,0,0,0,0,333,0,84,4.144,4.146,4.143,0,0,0,1.574,71.24,644.05203045218,0,10,Assisted_Takeoff,
6700,2022-02-25 02:57:39,38.6132550075578,114.377484799223,0,,,644.05203045218,0.328084,0,0.72458007568,1.4807415172,9,4,12.431,644.05203045218,0,0,0.74630251732,0,0,0,329.2, 2.8, 0,0,0,1024,1024,1024,1024,0,0,0,0,333,0,84,4.144,4.146,4.142,0,0,0,1.575,71.24,644.05203045218,0,10,Assisted_Takeoff,
6800,2022-02-25 02:57:39,38.6132550947378,114.37748479675,0,,,644.05203045218,0.328084,0,0.7559547486,1.51255582268,9,4,12.431,644.05203045218,0,0,0.7559547486,0,0,0,329.2, 2.8, 0,0,0,1024,1024,1024,1024,0,0,0,0,333,0,84,4.144,4.146,4.142,0,0,0,1.575,71.24,644.05203045218,0,10,Assisted_Takeoff,
6900,2022-02-25 02:57:39,38.6132551287521,114.377484804075,0,,,644.05203045218,0.328084,0,0.76777889596,1.52514112492,9,4,12.431,644.05203045218,0,0,0.76777889596,0,0,0,329.2, 2.8, 0,0,0,1024,1024,1024,1024,0,0,0,0,333,0,84,4.144,4.146,4.142,0,0,0,1.575,71.24,644.05203045218,0,10,Assisted_Takeoff,
7000,2022-02-25 02:57:39,38.613255051681,114.37748479914,0,,,644.05203045218,0.328084,0,0.74039372448,1.55329401296,9,4,12.431,644.05203045218,0,0,0.76777889596,0,0,0,329.2, 2.8, 0,0,0,1024,1024,1045,1024,0,0,3,0,333,0,84,4.144,4.146,4.142,0,0,0,1.575,71.24,644.05203045218,0,10,Assisted_Takeoff,
7100,2022-02-25 02:57:39,38.6132550743951,114.377484806998,0,,,644.05203045218,0.328084,0,0.74812338352,1.56187997124,9,4,12.431,644.05203045218,0,0,0.76777889596,0,0,0,329.2, 2.8, 0,0,0,1024,1024,1684,1024,0,0,100,0,333,0,84,4.144,4.146,4.142,0,0,0,1.575,71.24,644.05203045218,0,10,Assisted_Takeoff,
7200,2022-02-25 02:57:39,38.6132551717218,114.377484800704,0,,,644.05203045218,0.328084,0,0.78337929016,1.59743443432,9,4,12.431,644.05203045218,0,0,0.78337929016,0,0,0,329.2, 2.8, 0,0,0,1024,1024,1684,1024,0,0,100,0,333,0,84,4.144,4.146,4.142,0,0,0,1.575,71.24,644.05203045218,0,10,Assisted_Takeoff,
7300,2022-02-25 02:57:39,38.6132552010151,114.377484808272,0,,,644.05203045218,0.328084,0,0.79352692828,1.60833994648,13,4,12.431,644.05203045218,0,0,0.79352692828,0,0,0,329.2, 2.8, 0,0,0,1024,1024,1684,1024,0,0,100,0,333,0,84,4.144,4.146,4.142,0,0,0,1.575,71.24,644.05203045218,0,10,Assisted_Takeoff,
7400,2022-02-25 02:57:39,38.6132551343319,114.377484800405,0,,,644.05203045218,0.328084,0,0.76997049708,1.63277236196,13,4,12.431,644.05203045218,0,0,0.79352692828,0,0,0,329.2, 2.8, 0,0,0,1024,1024,1684,1024,0,0,100,0,333,0,84,4.144,4.146,4.142,0,0,0,1.575,71.24,644.05203045218,0,10,Assisted_Takeoff,
7500,2022-02-25 02:57:39,38.6132551530553,114.377484809119,0,,,644.05203045218,0.328084,0,0.77625330568,1.64003942256,14,4,12.431,644.05203045218,0,0,0.79352692828,0,0,0,329.1, 2.5, 0,0,0,1024,1024,1684,1024,0,0,100,0,333,0,84,4.144,4.146,4.142,0,0,0,1.575,71.24,644.05203045218,0,10,Assisted_Takeoff,
7600,2022-02-25 02:57:39,38.6132547849209,114.377484955511,0,,,644.05203045218,0.328084,0,0.63695212012,1.78068903336,14,4,12.431,644.05203045218,0,0,0.79352692828,0,0,0,329, 0, 0,0,0,1024,1024,1684,1024,0,0,100,0,333,0,84,4.144,4.146,4.142,0,0,0,1.575,71.24,644.05203045218,0,10,Assisted_Takeoff,
7700,2022-02-25 02:57:40,38.6132547529594,114.377484989394,0,,,644.05203045218,0.328084,0,0.62403873388,1.79583010996,14,4,12.429,644.05203045218,0,0,0.79352692828,0,0,-0.447388,329, -0.3, 0.3,0,0,1024,1024,1684,1024,0,0,100,0,333,0,84,4.138,4.134,4.125,0,0,0,1.589,71.24,644.05203045218,0,6,P-GPS,"机身存储空间已满，请备份文件后清理存储空间 (Code: 10062)"
7800,2022-02-25 02:57:40,38.6132541170041,114.377484822912,0,,,644.05203045218,0.328084,0,0.40817586608,2.03266410704,14,4,12.429,644.05203045218,0,0,0.79352692828,0,0,-1.11847,329.1, -0.4, 0.3,0,0,1024,1024,1684,1024,0,0,100,0,333,0,84,4.138,4.134,4.125,0,0,0,1.589,71.24,644.05203045218,0,6,P-GPS,
7900,2022-02-25 02:57:40,38.6132540341461,114.377484843794,0.328084,,,644.38011445218,0.328084,0,0.37766405408,2.06347447548,14,4,12.429,644.38011445218,0.328084,0,0.79352692828,0,0,-1.565858,329, 0, 0.1,0,0,1024,1024,1684,1024,0,0,100,0,333,0,84,4.138,4.134,4.125,0,0,0,1.589,71.24,644.38011445218,0.328084,6,P-GPS,
8000,2022-02-25 02:57:40,38.6132533581901,114.377484701196,0.656168,,,644.70819845218,0.984252,0,0.199331699292,2.31342527088,14,4,12.429,644.70819845218,0.656168,0,0.79352692828,0,0,-2.23694,329.1, 0, -0.2,0,0,1024,1024,1684,1024,0,0,100,0,333,0,84,4.138,4.134,4.125,0,0,0,1.589,71.24,644.70819845218,0.656168,6,P-GPS,
8100,2022-02-25 02:57:40,38.6132531862111,114.377484707471,0.984252,,,645.03628245218,1.312336,0,0.171307092096,2.3761975826,14,4,12.429,645.03628245218,0.984252,0,0.79352692828,0,0,-2.908022,328.9, 0, 0,0,0,1024,1024,1684,1024,0,0,100,0,333,0,84,4.138,4.134,4.125,0,0,0,1.589,71.24,645.03628245218,0.984252,6,P-GPS,
8200,2022-02-25 02:57:40,38.613252446893,114.377484549292,1.312336,,,645.36436645218,1.64042,0,0.306311361508,2.64967856248,14,4,12.429,645.36436645218,1.312336,0,0.79352692828,0,0,-3.579104,328.8, -0.6, 0.3,0,0,1024,1024,1684,1024,0,0,100,0,333,0,84,4.138,4.134,4.125,0,0,0,1.589,71.24,645.36436645218,1.312336,6,P-GPS,
8300,2022-02-25 02:57:40,38.6132521764566,114.377484548427,1.968504,,,646.02053445218,2.296588,0,0.38429791256,2.74834654464,14,4,12.429,646.02053445218,1.968504,0,0.79352692828,0,0,-4.250186,328.9, -1.3, 0.5,0,0,1024,1024,1684,1024,0,0,100,0,333,0,84,4.138,4.134,4.125,0,0,0,1.589,71.24,646.02053445218,1.968504,6,P-GPS,
8400,2022-02-25 02:57:40,38.6132518423762,114.37748441219,2.624672,,,646.67670245218,2.952756,0,0.50873361208,2.87627633876,14,4,12.429,646.67670245218,2.624672,0,0.79352692828,0,0,-5.144962,329, -1.2, 0.4,0,0,1024,1024,1684,1024,0,0,100,0,333,0,84,4.138,4.134,4.125,0,0,0,1.589,71.24,646.67670245218,2.624672,6,P-GPS,"机身存储空间已满，请备份文件后清理存储空间 (Code: 10062)"
8500,2022-02-25 02:57:40,38.6132515457117,114.377484411128,3.608924,,,647.66095445218,3.937008,0,0.60556432384,2.9845145312,14,4,12.429,647.66095445218,3.608924,0,0.79352692828,0,0,-6.039738,329, -1, 0.5,0,0,1024,1024,1684,1024,0,0,100,0,333,0,84,4.138,4.134,4.125,0,0,0,1.589,71.24,647.66095445218,3.608924,6,P-GPS,
8600,2022-02-25 02:57:40,38.6132505890352,114.377484632928,4.92126,,,648.97329045218,4.92126,0,0.91992128928,3.339238952,14,4,12.429,648.97329045218,4.92126,0,0.91992128928,0,0,-7.158208,329, -1.4, 0.6,0,0,1024,1024,1684,1024,0,0,100,0,333,0,84,4.138,4.134,4.125,0,0,0,1.589,71.24,648.97329045218,4.92126,6,P-GPS,
8700,2022-02-25 02:57:40,38.6132502285865,114.377484645266,5.905512,,,649.95754245218,5.905512,0,1.04843179208,3.470800636,13,4,12.036,649.95754245218,5.905512,0,1.04843179208,0,0,-7.82929,329, -1.9, 0.7,0,0,1024,1024,1684,1024,0,0,100,0,333,0,84,3.996,3.984,3.981,0,0,0,6.845,71.24,649.95754245218,5.905512,6,P-GPS,
8800,2022-02-25 02:57:41,38.6132498327535,114.377484472094,7.217848,,,651.26987845218,7.545932,0,1.19947182316,3.6234253128,13,4,12.036,651.26987845218,7.217848,0,1.19947182316,0,0,-8.500372,329, -1.3, 1.1,0,0,1024,1024,1684,1024,0,0,100,0,333,0,84,3.996,3.984,3.981,0,0,0,6.845,71.24,651.26987845218,7.217848,6,P-GPS,
8900,2022-02-25 02:57:41,38.6132494953078,114.377484469392,8.2021,,,652.25413045218,8.858268,0,1.32061684016,3.7465224296,13,4,12.036,652.25413045218,8.2021,0,1.32061684016,0,0,-8.94776,329.3, -0.6, 1.4,0,0,1024,1024,1684,1024,0,0,100,0,333,0,84,3.996,3.984,3.981,0,0,0,6.845,71.24,652.25413045218,8.2021,6,P-GPS,
9000,2022-02-25 02:57:41,38.6132501108368,114.377484331582,9.186352,,,653.23838245218,10.498688,0,1.10923888064,3.9745080012,13,4,12.036,653.23838245218,9.186352,0,1.32061684016,0,0,-9.171454,329.4, 0.3, 0.9,0,0,1024,1024,1684,1024,0,0,100,0,333,0,84,3.996,3.984,3.981,0,0,0,6.845,71.24,653.23838245218,9.186352,6,P-GPS,
9100,2022-02-25 02:57:41,38.6132498424329,114.377484359735,10.826772,,,654.87880245218,11.811024,0,1.20263127208,4.0727691592,14,4,12.036,654.87880245218,10.826772,0,1.32061684016,0,0,-9.171454,329.4, 1.1, 0.5,0,0,1024,1024,1684,1024,0,0,100,0,333,0,84,3.996,3.984,3.981,0,0,0,6.845,71.24,654.87880245218,10.826772,6,P-GPS,
9200,2022-02-25 02:57:41,38.6132502652859,114.377484450703,12.139108,,,656.19113845218,13.12336,0,1.0464567264,4.2292324188,14,4,12.036,656.19113845218,12.139108,0,1.32061684016,0,0,-9.171454,329.2, 1.6, 0.1,0,0,1024,1024,1684,1024,0,0,100,0,333,0,84,3.996,3.984,3.981,0,0,0,6.845,71.24,656.19113845218,12.139108,6,P-GPS,
9300,2022-02-25 02:57:41,38.6132499650127,114.377484517579,13.779528,,,657.83155845218,14.435696,0,1.14962602104,4.3404200864,13,4,12.036,657.83155845218,13.779528,0,1.32061684016,0,0,-9.171454,329, 1.7, 0,0,0,1024,1024,1684,1024,0,0,100,0,333,0,84,3.996,3.984,3.981,0,0,0,6.845,71.24,657.83155845218,13.779528,6,P-GPS,
9400,2022-02-25 02:57:41,38.6132488765565,114.377484746036,15.091864,,,659.14389445218,16.076116,0,1.53343836928,4.7428479208,13,4,12.036,659.14389445218,15.091864,0,1.53343836928,0,0,-9.171454,328.9, -1.1, 0.4,0,0,1024,1024,1684,1024,0,0,100,0,333,0,84,3.996,3.984,3.981,0,0,0,6.845,71.24,659.14389445218,15.091864,43,Detour,
9500,2022-02-25 02:57:41,38.61324847389,114.37748484916,16.732284,,,660.78431445218,17.388452,0,1.67723758648,4.8926838836,14,4,12.036,660.78431445218,16.732284,0,1.67723758648,0,0,-9.171454,328.9, -1.9, 0.8,0,0,1024,1024,1684,1024,0,0,100,0,333,0,84,3.996,3.984,3.981,0,0,0,6.845,71.24,660.78431445218,16.732284,43,Detour,
9600,2022-02-25 02:57:41,38.6132489086547,114.37748507304,18.04462,,,662.09665045218,18.700788,0,1.5152067414,5.063648456,14,4,12.036,662.09665045218,18.04462,0,1.67723758648,0,0,-8.94776,329, -1.2, 0.3,0,0,1024,1024,1684,1024,0,0,100,0,333,0,84,3.996,3.984,3.981,0,0,0,6.845,71.24,662.09665045218,18.04462,43,Detour,
9700,2022-02-25 02:57:42,38.6132485863253,114.377485170394,19.68504,,,663.73707045218,20.341208,0,1.63192590524,5.1844817932,14,4,11.985,663.73707045218,19.68504,0,1.67723758648,0,0,-8.94776,329.1, -0.6, 0.1,0,0,1024,1024,1684,1024,0,0,100,0,333,0,84,4.013,4.008,4.008,0,0,0,10.042,71.24,663.73707045218,19.68504,43,Detour,
9800,2022-02-25 02:57:42,38.6132477857953,114.377485582214,21.32546,,,665.37749045218,21.653544,0,1.925524996,5.4992783912,14,4,11.985,665.37749045218,21.32546,0,1.925524996,0,0,-8.94776,328.9, -0.9, 0.3,0,0,1024,1024,1684,1024,0,0,100,0,333,0,84,4.013,4.008,4.008,0,0,0,10.042,71.24,665.37749045218,21.32546,43,Detour,
9900,2022-02-25 02:57:42,38.6132474153766,114.377485697636,22.309712,,,666.36174245218,22.96588,0,2.06216213948,5.6383860072,14,4,11.985,666.36174245218,22.309712,0,2.06216213948,0,0,-8.94776,328.9, -1.2, 0.4,0,0,1024,1024,1684,1024,0,0,100,0,333,0,84,4.013,4.008,4.008,0,0,0,10.042,71.24,666.36174245218,22.309712,43,Detour,
10000,2022-02-25 02:57:42,38.6132471346466,114.377486153257,23.622048,,,667.67407845218,24.278216,0,2.17534783864,5.8037731516,14,4,11.985,667.67407845218,23.622048,0,2.17534783864,0,0,-8.724066,328.9, -1.4, 0.4,0,0,1024,1024,1684,1024,0,0,100,0,333,0,84,4.013,4.008,4.008,0,0,0,10.042,71.24,667.67407845218,23.622048,43,Detour,
10100,2022-02-25 02:57:42,38.613246784314,114.37748628776,24.934384,,,668.98641445218,25.590552,0,2.30681765912,5.9372377228,14,4,11.985,668.98641445218,24.934384,0,2.30681765912,0,0,-8.724066,329, -1.9, 0,0,0,1024,1024,1684,1024,0,0,100,0,333,0,84,4.013,4.008,4.008,0,0,0,10.042,71.24,668.98641445218,24.934384,43,Detour,
10200,2022-02-25 02:57:42,38.6132465913877,114.377486740663,26.24672,,,670.29875045218,26.574804,0,2.39562999792,6.0842849716,14,4,11.985,670.29875045218,26.24672,0,2.39562999792,0,0,-8.724066,328.9, -2.4, -0.2,0,0,1024,1024,1684,1024,0,0,100,0,333,0,84,4.013,4.008,4.008,0,0,0,10.042,71.24,670.29875045218,26.24672,43,Detour,
10300,2022-02-25 02:57:42,38.6132462733564,114.377486862221,27.559056,,,671.61108645218,28.215224,0,2.51595152408,6.205380776,14,4,11.985,671.61108645218,27.559056,0,2.51595152408,0,0,-8.724066,328.7, -2.8, -0.4,0,0,1024,1024,1684,1024,0,0,100,0,333,0,84,4.013,4.008,4.008,0,0,0,10.042,71.24,671.61108645218,27.559056,43,Detour,
10400,2022-02-25 02:57:42,38.6132461212097,114.377487052693,28.871392,,,672.92342245218,29.52756,0,2.58063656552,6.2830382588,14,4,11.985,672.92342245218,28.871392,0,2.58063656552,0,0,-8.724066,328.7, -3.1, -0.4,0,0,1024,1024,1684,1024,0,0,100,0,333,0,84,4.013,4.008,4.008,0,0,0,10.042,71.24,672.92342245218,28.871392,43,Detour,
10500,2022-02-25 02:57:42,38.613245857998,114.377487109233,30.183728,,,674.23575845218,30.839896,0,2.6779692458,6.38041359,14,4,11.985,674.23575845218,30.183728,0,2.6779692458,0,0,-8.724066,328.6, -2.9, -0.3,0,0,1024,1024,1684,1024,0,0,100,0,333,0,84,4.013,4.008,4.008,0,0,0,10.042,71.24,674.23575845218,30.183728,43,Detour,
10600,2022-02-25 02:57:42,38.6132457126614,114.377487084945,31.496064,,,675.54809445218,32.152232,0,2.72869759388,6.433891282,14,4,11.985,675.54809445218,31.496064,0,2.72869759388,0,0,-8.94776,328.5, -2.5, -0.1,0,0,1024,1024,1684,1024,0,0,100,0,333,0,84,4.013,4.008,4.008,0,0,0,10.042,71.24,675.54809445218,31.496064,43,Detour,
10700,2022-02-25 02:57:43,38.6132454995085,114.377487069201,32.8084,,,676.86043045218,33.464568,0,2.80429799,6.5117784236,14,4,12.028,676.86043045218,32.8084,0,2.80429799,0,0,-8.724066,328.6, -2.2, 0,0,0,1024,1024,1684,1024,0,0,100,0,333,0,84,4.011,4.004,4.002,0,0,0,7.817,71.42,676.86043045218,32.8084,43,Detour,
10800,2022-02-25 02:57:43,38.6132452369937,114.377487025722,34.120736,,,678.17276645218,34.44882,0,2.89639444964,6.6083663532,14,4,12.028,678.17276645218,34.120736,0,2.89639444964,0,0,-8.724066,328.7, -1.9, 0.1,0,0,1024,1024,1684,1024,0,0,100,0,333,0,84,4.011,4.004,4.002,0,0,0,7.817,71.42,678.17276645218,34.120736,43,Detour,
10900,2022-02-25 02:57:43,38.6132450486434,114.377486966925,35.433072,,,679.48510245218,34.44882,0,2.96136164332,6.6791012636,14,4,12.028,679.48510245218,35.433072,0,2.96136164332,0,0,-8.94776,328.7, -1.4, 0.2,0,0,1024,1024,1684,1024,0,0,100,0,333,0,84,4.011,4.004,4.002,0,0,0,7.817,71.42,679.48510245218,35.433072,43,Detour,
11000,2022-02-25 02:57:43,38.6132450350432,114.377486797952,36.745408,,,680.79743845218,34.44882,0,2.9588583624,6.727526462,14,4,12.028,680.79743845218,36.745408,0,2.96136164332,0,0,-8.724066,328.8, -1, 0.4,0,0,1024,1024,1684,1024,0,0,100,0,333,0,84,4.011,4.004,4.002,0,0,0,7.817,71.42,680.79743845218,36.745408,43,Detour,
11100,2022-02-25 02:57:43,38.6132448715993,114.377486715439,38.057744,,,682.10977445218,34.44882,0,3.01459327232,6.7916340756,14,4,12.028,682.10977445218,38.057744,0,3.01459327232,0,0,-8.724066,328.8, -0.7, 0.4,0,0,1024,1024,1684,1024,0,0,100,0,333,0,84,4.011,4.004,4.002,0,0,0,7.817,71.42,682.10977445218,38.057744,43,Detour,
11200,2022-02-25 02:57:43,38.6132448500481,114.377486750986,39.37008,,,683.42211045218,34.44882,0,3.0237697818,6.80446216,14,4,12.028,683.42211045218,39.37008,0,3.0237697818,0,0,-8.724066,328.9, -0.5, 0.5,0,0,1024,1024,1684,1024,0,0,100,0,333,0,84,4.011,4.004,4.002,0,0,0,7.817,71.42,683.42211045218,39.37008,43,Detour,
11300,2022-02-25 02:57:43,38.6132446973152,114.377486688496,40.682416,,,684.73444645218,34.44882,0,3.07660114832,6.8629595372,14,4,12.028,684.73444645218,40.682416,0,3.07660114832,0,0,-8.724066,328.9, -0.3, 0.5,0,0,1024,1024,1684,1024,0,0,100,0,333,0,84,4.011,4.004,4.002,0,0,0,7.817,71.42,684.73444645218,40.682416,43,Detour,
11400,2022-02-25 02:57:43,38.6132448775845,114.377486514895,41.666668,,,685.71869845218,34.44882,0,3.00522975496,6.9452758128,14,4,12.028,685.71869845218,41.666668,0,3.07660114832,0,0,-8.724066,328.9, -0.2, 0.5,0,0,1024,1024,1684,1024,0,0,100,0,333,0,84,4.011,4.004,4.002,0,0,0,7.817,71.42,685.71869845218,41.666668,43,Detour,
11500,2022-02-25 02:57:43,38.6132447432396,114.377486458432,42.979004,,,687.03103445218,34.44882,0,3.05210967772,6.9968506176,14,4,12.028,687.03103445218,42.979004,0,3.07660114832,0,0,-8.724066,328.9, -0.2, 0.3,0,0,1024,1024,1684,1024,0,0,100,0,333,0,84,4.011,4.004,4.002,0,0,0,7.817,71.42,687.03103445218,42.979004,43,Detour,
11600,2022-02-25 02:57:43,38.6132449920629,114.377486341208,44.29134,,,688.34337045218,34.44882,0,2.95830390044,7.0936025892,14,4,12.028,688.34337045218,44.29134,0,3.07660114832,0,0,-8.724066,328.9, -0.2, 0.3,0,0,1024,1024,1684,1024,0,0,100,0,333,0,84,4.011,4.004,4.002,0,0,0,7.817,71.42,688.34337045218,44.29134,43,Detour,
11700,2022-02-25 02:57:44,38.6132448813555,114.37748629632,45.603676,,,689.65570645218,34.44882,0,2.99723106704,7.1359582336,14,4,12.009,689.65570645218,45.603676,0,3.07660114832,0,0,-8.724066,328.8, -0.2, 0.2,0,0,1024,1024,1684,1024,0,0,100,0,333,0,84,4.006,4,3.998,0,0,0,8.047,71.42,689.65570645218,45.603676,43,Detour,
11800,2022-02-25 02:57:44,38.6132447533478,114.377486172829,46.916012,,,690.96804245218,34.44882,0,3.04059064848,7.1944556108,14,4,12.009,690.96804245218,46.916012,0,3.07660114832,0,0,-8.724066,328.8, -0.2, 0.2,0,0,1024,1024,1684,1024,0,0,100,0,333,0,84,4.006,4,3.998,0,0,0,8.047,71.42,690.96804245218,46.916012,43,Detour,
11900,2022-02-25 02:57:44,38.6132446296445,114.377486131005,48.228348,,,692.28037845218,34.44882,0,3.08461624044,7.241141964,13,4,12.009,692.28037845218,48.228348,0,3.08461624044,0,0,-8.724066,328.8, -0.2, 0.2,0,0,1024,1024,1684,1024,0,0,100,0,333,0,84,4.006,4,3.998,0,0,0,8.047,71.42,692.28037845218,48.228348,43,Detour,
12000,2022-02-25 02:57:44,38.6132446731012,114.377485985455,49.540684,,,693.59271445218,34.44882,0,3.0658301506,7.2855645376,13,4,12.009,693.59271445218,49.540684,0,3.08461624044,0,0,-8.724066,328.8, -0.2, 0.3,0,0,1024,1024,1684,1024,0,0,100,0,333,0,84,4.006,4,3.998,0,0,0,8.047,71.42,693.59271445218,49.540684,43,Detour,
12100,2022-02-25 02:57:44,38.6132445562405,114.377485944294,50.85302,,,694.90505045218,34.44882,0,3.10764773724,7.3297902608,13,4,12.009,694.90505045218,50.85302,0,3.10764773724,0,0,-8.724066,328.8, -0.1, 0.3,0,0,1024,1024,1684,1024,0,0,100,0,333,0,84,4.006,4,3.998,0,0,0,8.047,71.42,694.90505045218,50.85302,43,Detour,
12200,2022-02-25 02:57:44,38.6132447528739,114.377485618335,52.165356,,,696.21738645218,34.44882,0,3.0317094146,7.447178716,13,4,12.009,696.21738645218,52.165356,0,3.10764773724,0,0,-8.724066,328.9, 0, 0.5,0,0,1024,1024,1684,1024,0,0,100,0,333,0,84,4.006,4,3.998,0,0,0,8.047,71.42,696.21738645218,52.165356,43,Detour,
12300,2022-02-25 02:57:44,38.613244660287,114.377485563563,53.477692,,,697.52972245218,34.44882,0,3.06503290648,7.4843834416,13,5,12.009,697.52972245218,53.477692,0,3.10764773724,0,0,-8.724066,328.9, 0, 0.6,0,0,1024,1024,1684,1024,0,0,100,0,333,0,84,4.006,4,3.998,0,0,0,8.047,71.42,697.52972245218,53.477692,43,Detour,
12400,2022-02-25 02:57:44,38.613244516271,114.377485110123,54.790028,,,698.84205845218,34.44882,0,3.11695219948,7.6239503752,13,5,12.009,698.84205845218,54.790028,0,3.11695219948,0,0,-8.724066,328.9, 0, 0.8,0,0,1024,1024,1684,1024,0,0,100,0,333,0,84,4.006,4,3.998,0,0,0,8.047,71.42,698.84205845218,54.790028,43,Detour,
12500,2022-02-25 02:57:44,38.6132444162283,114.377485036917,56.102364,,,700.15439445218,34.44882,0,3.15384852612,7.6659779356,13,5,12.009,700.15439445218,56.102364,0,3.15384852612,0,0,-8.724066,329, 0, 0.9,0,0,1024,1024,1684,1024,0,0,100,0,333,0,84,4.006,4,3.998,0,0,0,8.047,71.42,700.15439445218,56.102364,43,Detour,
12600,2022-02-25 02:57:44,38.6132444532925,114.377484802585,57.4147,,,701.46673045218,34.44882,0,3.14254931316,7.7341537908,13,5,12.009,701.46673045218,57.4147,0,3.15384852612,0,0,-8.724066,329.1, 0, 0.9,0,0,1024,1024,1684,1024,0,0,100,0,333,0,84,4.006,4,3.998,0,0,0,8.047,71.42,701.46673045218,57.4147,43,Detour,
12700,2022-02-25 02:57:45,38.6132443680111,114.377484734998,58.727036,,,702.77906645218,34.44882,0,3.17452766064,7.7707351568,13,5,11.989,702.77906645218,58.727036,0,3.17452766064,0,0,-8.724066,329.1, 0, 0.9,0,0,1024,1024,1684,1024,0,0,100,0,333,0,84,4,3.994,3.993,0,0,0,8.092,71.42,702.77906645218,58.727036,43,Detour,
12800,2022-02-25 02:57:45,38.6132443994453,114.37748466942,60.039372,,,704.09140245218,34.44882,0,3.16405521936,7.7926839764,13,5,11.989,704.09140245218,60.039372,0,3.17452766064,0,0,-8.724066,329.1, 0, 0.8,0,0,1024,1024,1684,1024,0,0,100,0,333,0,84,4,3.994,3.993,0,0,0,8.092,71.42,704.09140245218,60.039372,43,Detour,
12900,2022-02-25 02:57:45,38.6132443298921,114.377484620774,61.351708,,,705.40373845218,34.44882,0,3.19018710996,7.8215881768,13,5,11.989,705.40373845218,61.351708,0,3.19018710996,0,0,-8.724066,329.1, 0, 0.9,0,0,1024,1024,1684,1024,0,0,100,0,333,0,84,4,3.994,3.993,0,0,0,8.092,71.42,705.40373845218,61.351708,43,Detour,
13000,2022-02-25 02:57:45,38.6132441958639,114.377484683721,62.664044,,,706.71607445218,34.44882,0,3.23800207212,7.873687916,13,5,11.989,706.71607445218,62.664044,0,3.23800207212,0,0,-8.724066,329.2, 0, 0.9,0,0,1024,1024,1684,1024,0,0,100,0,333,0,84,4,3.994,3.993,0,0,0,8.092,71.42,706.71607445218,62.664044,43,Detour,
13100,2022-02-25 02:57:45,38.6132441282855,114.3774846646,63.648296,,,707.70032645218,34.44882,0,3.26291349024,7.8989175756,14,5,11.989,707.70032645218,63.648296,0,3.26291349024,0,0,-8.724066,329.2, -0.1, 0.9,0,0,1024,1024,1684,1024,0,0,100,0,333,0,84,4,3.994,3.993,0,0,0,8.092,71.42,707.70032645218,63.648296,43,Detour,
13200,2022-02-25 02:57:45,38.6132441526483,114.377484515536,64.960632,,,709.01266245218,34.44882,0,3.2566274008,7.9423558972,14,5,11.989,709.01266245218,64.960632,0,3.26291349024,0,0,-8.94776,329.2, 0, 0.8,0,0,1024,1024,1684,1024,0,0,100,0,333,0,84,4,3.994,3.993,0,0,0,8.092,71.42,709.01266245218,64.960632,43,Detour,
13300,2022-02-25 02:57:45,38.613244103603,114.377484505406,66.272968,,,710.32499845218,34.44882,0,3.27467530164,7.960466134,13,5,11.989,710.32499845218,66.272968,0,3.27467530164,0,0,-8.724066,329.2, -0.1, 0.8,0,0,1024,1024,1684,1024,0,0,100,0,333,0,84,4,3.994,3.993,0,0,0,8.092,71.42,710.32499845218,66.272968,43,Detour,
13400,2022-02-25 02:57:45,38.6132436372926,114.377484647862,67.585304,,,711.63733445218,34.44882,0,3.4420604776,8.1354005228,13,5,11.989,711.63733445218,67.585304,0,3.4420604776,0,0,-8.724066,329.1, -0.2, 0.7,0,0,1024,1024,1684,1024,0,0,100,0,333,0,84,4,3.994,3.993,0,0,0,8.092,71.42,711.63733445218,67.585304,43,Detour,
13500,2022-02-25 02:57:45,38.6132435580691,114.37748466683,68.89764,,,712.94967045218,34.44882,0,3.470636594,8.1647968492,13,5,11.989,712.94967045218,68.89764,0,3.470636594,0,0,-8.724066,329.1, -0.3, 0.7,0,0,1024,1024,1684,1024,0,0,100,0,333,0,84,4,3.994,3.993,0,0,0,8.092,71.42,712.94967045218,68.89764,43,Detour,
13600,2022-02-25 02:57:45,38.6132431405873,114.377483956752,70.209976,,,714.26200645218,34.44882,0,3.6382547096,8.418143314,13,5,11.989,714.26200645218,70.209976,0,3.6382547096,0,0,-8.724066,329.1, -0.3, 0.6,0,0,1024,1024,1684,1024,0,0,100,0,333,0,84,4,3.994,3.993,0,0,0,8.092,71.42,714.26200645218,70.209976,43,Detour,
13700,2022-02-25 02:57:46,38.6132430355685,114.377483917912,71.522312,,,715.57434245218,34.44882,0,3.6775263644,8.45800552,14,5,11.973,715.57434245218,71.522312,0,3.6775263644,0,0,-8.724066,329.1, -0.4, 0.6,0,0,1024,1024,1684,1024,0,0,100,0,333,0,84,3.996,3.99,3.988,0,0,0,8.159,71.42,715.57434245218,71.522312,43,Detour,
13800,2022-02-25 02:57:46,38.613242798004,114.377484033583,72.834648,,,716.88667845218,34.44882,0,3.7604331912,8.5507548668,14,5,11.973,716.88667845218,72.834648,0,3.7604331912,0,0,-8.724066,329, -0.5, 0.7,0,0,1024,1024,1684,1024,0,0,100,0,333,0,84,3.996,3.99,3.988,0,0,0,8.159,71.42,716.88667845218,72.834648,43,Detour,
13900,2022-02-25 02:57:46,38.6132426904449,114.377484009687,74.146984,,,718.19901445218,34.44882,0,3.8001641636,8.5905842644,14,5,11.973,718.19901445218,74.146984,0,3.8001641636,0,0,-8.724066,329.1, -0.5, 0.6,0,0,1024,1024,1684,1024,0,0,100,0,333,0,84,3.996,3.99,3.988,0,0,0,8.159,71.42,718.19901445218,74.146984,43,Detour,
14000,2022-02-25 02:57:46,38.6132423313795,114.377484081601,75.45932,,,719.51135045218,34.44882,0,3.9287402832,8.7231630088,14,5,11.973,719.51135045218,75.45932,0,3.9287402832,0,0,-8.724066,329.1, -0.5, 0.4,0,0,1024,1024,1684,1024,0,0,100,0,333,0,84,3.996,3.99,3.988,0,0,0,8.159,71.42,719.51135045218,75.45932,43,Detour,
14100,2022-02-25 02:57:46,38.6132422101262,114.377484061305,76.771656,,,720.82368645218,34.44882,0,3.9732940904,8.7677824328,14,5,11.973,720.82368645218,76.771656,0,3.9732940904,0,0,-8.724066,329, -0.5, 0.4,0,0,1024,1024,1684,1024,0,0,100,0,333,0,84,3.996,3.99,3.988,0,0,0,8.159,71.42,720.82368645218,76.771656,43,Detour,
14200,2022-02-25 02:57:46,38.61324204247,114.377484249981,78.083992,,,722.13602245218,34.44882,0,4.0299541972,8.84924569,14,5,11.973,722.13602245218,78.083992,0,4.0299541972,0,0,-8.724066,329, -0.4, 0.4,0,0,1024,1024,1684,1024,0,0,100,0,333,0,84,3.996,3.99,3.988,0,0,0,8.159,71.42,722.13602245218,78.083992,43,Detour,
14300,2022-02-25 02:57:46,38.6132419204634,114.377484237399,79.396328,,,723.44835845218,34.44882,0,4.0746064296,8.8938979224,14,5,11.973,723.44835845218,79.396328,0,4.0746064296,0,0,-8.724066,328.9, -0.4, 0.4,0,0,1024,1024,1684,1024,0,0,100,0,333,0,84,3.996,3.99,3.988,0,0,0,8.159,71.42,723.44835845218,79.396328,43,Detour,
14400,2022-02-25 02:57:46,38.6132417386531,114.37748422319,80.708664,,,724.76069445218,34.44882,0,4.1410434396,8.9603677408,14,5,11.973,724.76069445218,80.708664,0,4.1410434396,0,0,-8.724066,328.9, -0.4, 0.3,0,0,1024,1024,1684,1024,0,0,100,0,333,0,84,3.996,3.99,3.988,0,0,0,8.159,71.42,724.76069445218,80.708664,43,Detour,
14500,2022-02-25 02:57:46,38.6132416119775,114.377484205778,82.021,,,726.07303045218,34.44882,0,4.187500134,9.0068572436,14,5,11.973,726.07303045218,82.021,0,4.187500134,0,0,-8.724066,328.9, -0.4, 0.3,0,0,1024,1024,1684,1024,0,0,100,0,333,0,84,3.996,3.99,3.988,0,0,0,8.159,71.42,726.07303045218,82.021,43,Detour,
14600,2022-02-25 02:57:46,38.6132414204273,114.377484365434,83.333336,,,727.38536645218,34.44882,0,4.2541668028,9.0902561964,14,5,11.973,727.38536645218,83.333336,0,4.2541668028,0,0,-8.724066,328.9, -0.4, 0.3,0,0,1024,1024,1684,1024,0,0,100,0,333,0,84,3.996,3.99,3.988,0,0,0,8.159,71.42,727.38536645218,83.333336,43,Detour,
14700,2022-02-25 02:57:47,38.6132412878369,114.377484362125,84.645672,,,728.69770245218,34.44882,0,4.302493576,9.138615778,14,5,11.964,728.69770245218,84.645672,0,4.302493576,0,0,-8.724066,328.9, -0.3, 0.3,0,0,1024,1024,1684,1024,0,0,100,0,333,0,84,3.991,3.984,3.984,0,0,0,8.125,71.6,728.69770245218,84.645672,43,Detour,
14800,2022-02-25 02:57:47,38.6132410987366,114.377484515476,85.958008,,,730.01003845218,34.44882,0,4.3689633944,9.220308694,14,5,11.964,730.01003845218,85.958008,0,4.3689633944,0,0,-8.724066,328.9, -0.4, 0.3,0,0,1024,1024,1684,1024,0,0,100,0,333,0,84,3.991,3.984,3.984,0,0,0,8.125,71.6,730.01003845218,85.958008,43,Detour,
14900,2022-02-25 02:57:47,38.6132409591209,114.377484520676,87.270344,,,731.32237445218,34.44882,0,4.4197507976,9.2712601392,14,5,11.964,731.32237445218,87.270344,0,4.4197507976,0,0,-8.724066,328.9, -0.4, 0.3,0,0,1024,1024,1678,1024,0,0,99,0,333,-0.5,84,3.991,3.984,3.984,0,0,0,8.125,71.6,731.32237445218,87.270344,43,Detour,
15000,2022-02-25 02:57:47,38.6132407772587,114.377484490406,88.58268,,,732.63471045218,34.44882,0,4.4864502748,9.3381892752,14,5,11.964,732.63471045218,88.58268,0,4.4864502748,0,0,-8.94776,328.9, -0.4, 0.4,0,0,1024,1024,1678,1024,0,0,99,0,333,-1.4,84,3.991,3.984,3.984,0,0,0,8.125,71.6,732.63471045218,88.58268,43,Detour,
15100,2022-02-25 02:57:47,38.6132406322904,114.377484490309,89.895016,,,733.94704645218,34.44882,0,4.5392717988,9.391076416,14,5,11.964,733.94704645218,89.895016,0,4.5392717988,0,0,-8.724066,328.9, -0.4, 0.3,0,0,1024,1024,1651,1024,0,0,95,0,333,-2.7,84,3.991,3.984,3.984,0,0,0,8.125,71.6,733.94704645218,89.895016,43,Detour,
15200,2022-02-25 02:57:47,38.6132404611424,114.377484626409,91.207352,,,735.25938245218,34.44882,0,4.599901722,9.4646000404,14,5,11.964,735.25938245218,91.207352,0,4.599901722,0,0,-8.724066,329, -0.4, 0.3,0,0,1024,1024,1621,1024,0,0,90,0,333,-4.1,84,3.991,3.984,3.984,0,0,0,8.125,71.6,735.25938245218,91.207352,43,Detour,
15300,2022-02-25 02:57:47,38.6132403132294,114.377484633741,92.519688,,,736.57171845218,34.44882,0,4.6537403064,9.5186026668,14,5,11.964,736.57171845218,92.519688,0,4.6537403064,0,0,-8.724066,328.9, -0.4, 0.3,0,0,1024,1024,1621,1024,0,0,90,0,333,-5.5,84,3.991,3.984,3.984,0,0,0,8.125,71.6,736.57171845218,92.519688,43,Detour,
15400,2022-02-25 02:57:47,38.6132401552491,114.377484760529,93.832024,,,737.88405445218,34.44882,0,4.7100395208,9.58661448,14,5,11.964,737.88405445218,93.832024,0,4.7100395208,0,0,-8.276678,328.9, -0.4, 0.3,0,0,1024,1024,1616,1024,0,0,90,0,333,-7,84,3.991,3.984,3.984,0,0,0,8.125,71.6,737.88405445218,93.832024,43,Detour,
15500,2022-02-25 02:57:47,38.6132400072027,114.377484774383,94.816276,,,738.86830645218,34.44882,0,4.7639109136,9.6407811484,14,5,11.964,738.86830645218,94.816276,0,4.7639109136,0,0,-7.82929,329, -0.3, 0.3,0,0,1024,1024,1621,1024,0,0,90,0,333,-8.5,84,3.991,3.984,3.984,0,0,0,8.125,71.6,738.86830645218,94.816276,43,Detour,
15600,2022-02-25 02:57:47,38.6132400210251,114.377484565287,96.128612,,,740.18064245218,34.44882,0,4.7610565828,9.70062367,14,5,11.964,740.18064245218,96.128612,0,4.7639109136,0,0,-7.381902,329, -0.4, 0.4,0,0,1024,1024,1631,1024,0,0,92,0,333,-9.9,84,3.991,3.984,3.984,0,0,0,8.125,71.6,740.18064245218,96.128612,43,Detour,
15700,2022-02-25 02:57:48,38.6132398881286,114.377484554738,97.112864,,,741.16489445218,34.44882,0,4.8096458232,9.749180102,14,5,11.97,741.16489445218,97.112864,0,4.8096458232,0,0,-7.158208,328.9, -0.3, 0.3,0,0,1024,1024,1637,1024,0,0,93,0,333,-11.4,84,4.002,4.007,4.014,0,0,0,8.072,71.6,741.16489445218,97.112864,43,Detour,
15800,2022-02-25 02:57:48,38.6132398677825,114.377484698863,98.097116,,,742.14914645218,34.44882,0,4.81545291,9.7909451952,14,5,11.97,742.14914645218,98.097116,0,4.81545291,0,0,-7.158208,329, -0.2, 0.4,0,0,1024,1024,1639,1024,0,0,93,0,333,-12.8,84,4.002,4.007,4.014,0,0,0,8.072,71.6,742.14914645218,98.097116,43,Detour,
15900,2022-02-25 02:57:48,38.6132397456025,114.377484698796,99.081368,,,743.13339845218,34.44882,0,4.8600067172,9.8355318108,14,5,11.97,743.13339845218,99.081368,0,4.8600067172,0,0,-7.158208,329, -0.1, 0.4,0,0,1024,1024,1645,1024,0,0,94,0,333,-14.2,84,4.002,4.007,4.014,0,0,0,8.072,71.6,743.13339845218,99.081368,43,Detour,
16000,2022-02-25 02:57:48,38.613239847757,114.377484836216,100.06562,,,744.11765045218,34.44882,0,4.8215552724,9.889600054,14,5,11.97,744.11765045218,100.06562,0,4.8600067172,0,0,-7.381902,328.9, 0, 0.5,0,0,1024,1024,1659,1024,0,0,96,0,333,-15.4,84,4.002,4.007,4.014,0,0,0,8.072,71.6,744.11765045218,100.06562,43,Detour,
16100,2022-02-25 02:57:48,38.6132397411456,114.377484849525,101.049872,,,745.10190245218,34.44882,0,4.8603348012,9.9286748584,14,5,11.97,745.10190245218,101.049872,0,4.8603348012,0,0,-7.381902,328.9, -0.1, 0.5,0,0,1024,1024,1660,1024,0,0,96,0,333,-16.1,84,4.002,4.007,4.014,0,0,0,8.072,71.6,745.10190245218,101.049872,43,Detour,
16200,2022-02-25 02:57:48,38.613239494566,114.377484827996,102.362208,,,746.41423845218,34.44882,0,4.9504266676,10.01886515,14,5,11.97,746.41423845218,102.362208,0,4.9504266676,0,0,-7.605596,329, -0.1, 0.4,0,0,1024,1024,1660,1024,0,0,96,0,333,-16.4,84,4.002,4.007,4.014,0,0,0,8.072,71.6,746.41423845218,102.362208,43,Detour,
16300,2022-02-25 02:57:48,38.6132393745741,114.377484845074,103.674544,,,747.72657445218,34.44882,0,4.9940618396,10.0628940228,14,5,11.97,747.72657445218,103.674544,0,4.9940618396,0,0,-7.82929,328.9, -0.1, 0.4,0,0,1024,1024,1670,1024,0,0,98,0,333,-16.5,84,4.002,4.007,4.014,0,0,0,8.072,71.6,747.72657445218,103.674544,43,Detour,
16400,2022-02-25 02:57:48,38.6132394577504,114.377484837822,104.658796,,,748.71082645218,34.44882,0,4.9637796864,10.0933074096,14,5,11.97,748.71082645218,104.658796,0,4.9940618396,0,0,-8.052984,328.9, -0.1, 0.3,0,0,1024,1024,1684,1024,0,0,100,0,333,-16.5,84,4.002,4.007,4.014,0,0,0,8.072,71.6,748.71082645218,104.658796,43,Detour,
16500,2022-02-25 02:57:48,38.6132393533372,114.377484855965,105.971132,,,750.02316245218,34.44882,0,5.0017390052,10.1317588544,14,5,11.97,750.02316245218,105.971132,0,5.0017390052,0,0,-8.276678,328.9, -0.2, 0.3,0,0,1024,1024,1684,1024,0,0,100,0,333,-16.5,84,4.002,4.007,4.014,0,0,0,8.072,71.6,750.02316245218,105.971132,43,Detour,
16600,2022-02-25 02:57:48,38.6132394125473,114.377484685192,106.955384,,,751.00741445218,34.44882,0,4.9815946476,10.185039696,14,5,11.97,751.00741445218,106.955384,0,5.0017390052,0,0,-8.500372,328.9, -0.2, 0.2,0,0,1024,1024,1684,1024,0,0,100,0,333,-16.5,84,4.002,4.007,4.014,0,0,0,8.072,71.6,751.00741445218,106.955384,43,Detour,
16700,2022-02-25 02:57:49,38.6132393230955,114.377484684395,108.26772,,,752.31975045218,34.44882,0,5.0142061972,10.2176512456,14,5,11.945,752.31975045218,108.26772,0,5.0142061972,0,0,-8.724066,328.9, -0.1, 0.2,0,0,1024,1024,1684,1024,0,0,100,0,333,-16.5,84,3.979,3.974,3.975,0,0,0,7.493,71.6,752.31975045218,108.26772,43,Detour,
16800,2022-02-25 02:57:49,38.6132392075213,114.377484834243,109.580056,,,753.63208645218,34.44882,0,5.0550854636,10.2776906176,14,5,11.945,753.63208645218,109.580056,0,5.0550854636,0,0,-8.94776,328.9, -0.1, 0.2,0,0,1024,1024,1684,1024,0,0,100,0,333,-16.5,84,3.979,3.974,3.975,0,0,0,7.493,71.6,753.63208645218,109.580056,43,Detour,
16900,2022-02-25 02:57:49,38.6132391127263,114.377484848085,110.892392,,,754.94442245218,34.44882,0,5.089567092,10.31250033,14,5,11.945,754.94442245218,110.892392,0,5.089567092,0,0,-8.94776,328.9, 0, 0.2,0,0,1024,1024,1684,1024,0,0,100,0,333,-16.5,84,3.979,3.974,3.975,0,0,0,7.493,71.6,754.94442245218,110.892392,43,Detour,
17000,2022-02-25 02:57:49,38.6132389849587,114.377484821079,112.204728,,,756.25675845218,34.44882,0,5.1363518704,10.359744426,14,5,11.945,756.25675845218,112.204728,0,5.1363518704,0,0,-8.94776,328.9, -0.1, 0.2,0,0,1024,1024,1684,1024,0,0,100,0,333,-16.5,84,3.979,3.974,3.975,0,0,0,7.493,71.6,756.25675845218,112.204728,43,Detour,
17100,2022-02-25 02:57:49,38.6132388839981,114.377484829653,113.517064,,,757.56909445218,34.44882,0,5.1731300868,10.396653876,14,5,11.945,757.56909445218,113.517064,0,5.1731300868,0,0,-8.94776,328.9, 0, 0.2,0,0,1024,1024,1684,1024,0,0,100,0,333,-16.5,84,3.979,3.974,3.975,0,0,0,7.493,71.6,757.56909445218,113.517064,43,Detour,
17200,2022-02-25 02:57:49,38.6132389199803,114.377484656016,114.8294,,,758.88143045218,34.44882,0,5.1614831048,10.4478677884,14,5,11.945,758.88143045218,114.8294,0,5.1731300868,0,0,-8.94776,328.9, 0, 0.2,0,0,1024,1024,1684,1024,0,0,100,0,333,-16.5,84,3.979,3.974,3.975,0,0,0,7.493,71.6,758.88143045218,114.8294,43,Detour,
17300,2022-02-25 02:57:49,38.6132388276796,114.377484652047,116.141736,,,760.19376645218,34.44882,0,5.1951773316,10.4815620152,14,5,11.945,760.19376645218,116.141736,0,5.1951773316,0,0,-8.94776,328.9, 0, 0.1,0,0,1024,1024,1684,1024,0,0,100,0,333,-16.5,84,3.979,3.974,3.975,0,0,0,7.493,71.6,760.19376645218,116.141736,43,Detour,
17400,2022-02-25 02:57:49,38.6132386957455,114.377484505891,117.782156,,,761.83418645218,34.44882,0,5.2448820576,10.5452431196,14,5,11.945,761.83418645218,117.782156,0,5.2448820576,0,0,-8.94776,328.9, 0, 0.1,0,0,1024,1024,1684,1024,0,0,100,0,333,-16.5,84,3.979,3.974,3.975,0,0,0,7.493,71.6,761.83418645218,117.782156,43,Detour,
17500,2022-02-25 02:57:49,38.6132385970171,114.377484488882,118.766408,,,762.81843845218,34.44882,0,5.2810697228,10.5815948268,14,5,11.945,762.81843845218,118.766408,0,5.2810697228,0,0,-8.94776,328.9, 0, 0.1,0,0,1024,1024,1684,1024,0,0,100,0,333,-16.5,84,3.979,3.974,3.975,0,0,0,7.493,71.6,762.81843845218,118.766408,43,Detour,
17600,2022-02-25 02:57:49,38.613238482424,114.377484373033,120.078744,,,764.13077445218,34.44882,0,5.3243440024,10.6348756684,14,5,11.945,764.13077445218,120.078744,0,5.3243440024,0,0,-8.724066,328.9, -0.1, 0,0,0,1024,1024,1684,1024,0,0,100,0,333,-16.5,84,3.979,3.974,3.975,0,0,0,7.493,71.6,764.13077445218,120.078744,43,Detour,
17700,2022-02-25 02:57:50,38.6132383798349,114.377484344158,121.719164,,,765.77119445218,34.44882,0,5.3621392792,10.6731958796,14,5,11.926,765.77119445218,121.719164,0,5.3621392792,0,0,-8.94776,328.9, -0.1, 0.1,0,0,1024,1024,1684,1024,0,0,100,0,333,-16.5,83,3.985,3.978,3.978,0,0,0,8.554,71.6,765.77119445218,121.719164,43,Detour,
17800,2022-02-25 02:57:50,38.6132379552787,114.377484233419,122.703416,,,766.75544645218,34.44882,0,5.5184713052,10.8312667508,14,5,11.926,766.75544645218,122.703416,0,5.5184713052,0,0,-8.724066,328.9, -0.2, 0.4,0,0,1024,1024,1684,1024,0,0,100,0,333,-16.5,83,3.985,3.978,3.978,0,0,0,8.554,71.6,766.75544645218,122.703416,43,Detour,
17900,2022-02-25 02:57:50,38.6132378235447,114.377484196553,124.015752,,,768.06778245218,34.44882,0,5.5670605456,10.8804793508,14,5,11.926,768.06778245218,124.015752,0,5.5670605456,0,0,-8.724066,328.9, -0.1, 0.4,0,0,1024,1024,1684,1024,0,0,100,0,333,-16.5,83,3.985,3.978,3.978,0,0,0,8.554,71.6,768.06778245218,124.015752,43,Detour,
18000,2022-02-25 02:57:50,38.6132377734568,114.377484109192,125.328088,,,769.38011845218,34.44882,0,5.5867455856,10.9113520552,14,5,11.926,769.38011845218,125.328088,0,5.5867455856,0,0,-8.724066,328.9, -0.1, 0.3,0,0,1024,1024,1684,1024,0,0,100,0,333,-16.5,83,3.985,3.978,3.978,0,0,0,8.554,71.6,769.38011845218,125.328088,43,Detour,
18100,2022-02-25 02:57:50,38.6132376523942,114.377484074898,126.640424,,,770.69245445218,34.44882,0,5.6314306264,10.9565948388,14,5,11.926,770.69245445218,126.640424,0,5.6314306264,0,0,-8.724066,328.9, -0.2, 0.4,0,0,1024,1024,1684,1024,0,0,100,0,333,-16.5,83,3.985,3.978,3.978,0,0,0,8.554,71.6,770.69245445218,126.640424,43,Detour,
18200,2022-02-25 02:57:50,38.6132373002127,114.377483705299,127.95276,,,772.00479045218,34.44882,0,5.7669621268,11.1227693848,14,5,11.926,772.00479045218,127.95276,0,5.7669621268,0,0,-8.94776,328.9, -0.1, 0.5,0,0,1024,1024,1684,1024,0,0,100,0,333,-16.5,83,3.985,3.978,3.978,0,0,0,8.554,71.6,772.00479045218,127.95276,43,Detour,
18300,2022-02-25 02:57:50,38.6132371615776,114.377483644598,129.265096,,,773.31712645218,34.44882,0,5.818733782,11.1762142684,14,5,11.926,773.31712645218,129.265096,0,5.818733782,0,0,-8.724066,328.9, 0, 0.6,0,0,1024,1024,1684,1024,0,0,100,0,333,-16.5,83,3.985,3.978,3.978,0,0,0,8.554,71.6,773.31712645218,129.265096,43,Detour,
18400,2022-02-25 02:57:50,38.6132369974291,114.377483794403,130.577432,,,774.62946245218,34.44882,0,5.8751970384,11.2497707012,14,5,11.926,774.62946245218,130.577432,0,5.8751970384,0,0,-8.94776,328.9, -0.1, 0.7,0,0,1024,1024,1684,1024,0,0,100,0,333,-16.5,83,3.985,3.978,3.978,0,0,0,8.554,71.6,774.62946245218,130.577432,43,Detour,
18500,2022-02-25 02:57:50,38.6132368569649,114.377483766369,131.889768,,,775.94179845218,34.44882,0,5.9269030768,11.3016407816,14,5,11.926,775.94179845218,131.889768,0,5.9269030768,0,0,-8.94776,328.9, -0.2, 0.4,0,0,1024,1024,1684,1024,0,0,100,0,333,-16.5,83,3.985,3.978,3.978,0,0,0,8.554,71.6,775.94179845218,131.889768,43,Detour,
18600,2022-02-25 02:57:50,38.613236834538,114.377483882419,133.202104,,,777.25413445218,34.44882,0,5.932742972,11.3357287092,14,5,11.926,777.25413445218,133.202104,0,5.932742972,0,0,-8.724066,329, -0.4, 0.5,0,0,1024,1024,1684,948,0,0,100,-12,333,-16.5,83,3.985,3.978,3.978,0,0,0,8.554,71.6,777.25413445218,133.202104,43,Detour,
18700,2022-02-25 02:57:51,38.6132367079127,114.377483864677,134.51444,,,778.56647045218,34.44882,0,5.979166858,11.382218212,14,5,11.938,778.56647045218,134.51444,0,5.979166858,0,0,-8.94776,329, -0.3, 0.6,0,0,1024,1024,1684,856,0,0,100,-25,333,-16.5,83,3.981,3.974,3.974,0,0,0,8.001,71.78,778.56647045218,134.51444,43,Detour,
18800,2022-02-25 02:57:51,38.6132366951361,114.377484091633,135.826776,,,779.87880645218,34.44882,0,5.9797902176,11.4470804188,14,5,11.938,779.87880645218,135.826776,0,5.9797902176,0,0,-8.94776,328.9, -0.1, 0.6,0,0,1024,1024,1684,863,0,0,100,-24,332.9,-16.5,83,3.981,3.974,3.974,0,0,0,8.001,71.78,779.87880645218,135.826776,43,Detour,
18900,2022-02-25 02:57:51,38.6132365863067,114.377484093393,137.139112,,,781.19114245218,34.44882,0,6.0193899564,11.4867785828,14,5,11.938,781.19114245218,137.139112,0,6.0193899564,0,0,-8.94776,328.8, 0, 0.6,0,0,1024,1024,1655,1024,0,0,96,0,332.7,-16.5,83,3.981,3.974,3.974,0,0,0,8.001,71.78,781.19114245218,137.139112,43,Detour,
